{
 "type": "FeatureCollection",
 "name": "TouristSpots",
 "crs": {
  "type": "name",
  "properties": { "name": "urn:ogc:def:crs:OGC:1.3:CRS84" }
 },
 "features": [
  {
   "type": "Feature",
   "properties": {
    "OID_": 0,
    "Name": "Kawhagan Island",
    "FolderPath": "Tourist Spots Siargao.kmz/Temporary Places",
    "SymbolID": 0,
    "AltMode": -1,
    "Base": 0.0,
    "Snippet": null,
    "PopupInfo": null,
    "HasLabel": -1,
    "LabelID": 0
   },
   "geometry": {
    "type": "Point",
    "coordinates": [125.895047222, 9.920925, 0.0]
   }
  },
  {
   "type": "Feature",
   "properties": {
    "OID_": 0,
    "Name": "Blue Cathedral",
    "FolderPath": "Tourist Spots Siargao.kmz/Temporary Places",
    "SymbolID": 0,
    "AltMode": -1,
    "Base": 0.0,
    "Snippet": null,
    "PopupInfo": null,
    "HasLabel": -1,
    "LabelID": 0
   },
   "geometry": {
    "type": "Point",
    "coordinates": [126.157430556, 9.844797222000068, 0.0]
   }
  },
  {
   "type": "Feature",
   "properties": {
    "OID_": 0,
    "Name": "Burgos Surfing Site",
    "FolderPath": "Tourist Spots Siargao.kmz/Temporary Places",
    "SymbolID": 0,
    "AltMode": -1,
    "Base": 0.0,
    "Snippet": null,
    "PopupInfo": null,
    "HasLabel": -1,
    "LabelID": 0
   },
   "geometry": {
    "type": "Point",
    "coordinates": [126.07340720000002, 10.02012490000004, 0.0]
   }
  },
  {
   "type": "Feature",
   "properties": {
    "OID_": 0,
    "Name": "Corregidor Island",
    "FolderPath": "Tourist Spots Siargao.kmz/Temporary Places",
    "SymbolID": 0,
    "AltMode": -1,
    "Base": 0.0,
    "Snippet": null,
    "PopupInfo": null,
    "HasLabel": -1,
    "LabelID": 0
   },
   "geometry": {
    "type": "Point",
    "coordinates": [126.07276666700011, 9.696361111000044, 0.0]
   }
  },
  {
   "type": "Feature",
   "properties": {
    "OID_": 0,
    "Name": "Cloud 9 Surfing Site",
    "FolderPath": "Tourist Spots Siargao.kmz/Temporary Places",
    "SymbolID": 0,
    "AltMode": -1,
    "Base": 0.0,
    "Snippet": null,
    "PopupInfo": null,
    "HasLabel": -1,
    "LabelID": 0
   },
   "geometry": {
    "type": "Point",
    "coordinates": [126.164252100000112, 9.81217950000007, 0.0]
   }
  },
  {
   "type": "Feature",
   "properties": {
    "OID_": 0,
    "Name": "Cloud 9 Boardwalk and Tower",
    "FolderPath": "Tourist Spots Siargao.kmz/Temporary Places",
    "SymbolID": 0,
    "AltMode": -1,
    "Base": 0.0,
    "Snippet": null,
    "PopupInfo": null,
    "HasLabel": -1,
    "LabelID": 0
   },
   "geometry": {
    "type": "Point",
    "coordinates": [126.163609900000097, 9.812817700000039, 0.0]
   }
  },
  {
   "type": "Feature",
   "properties": {
    "OID_": 0,
    "Name": "Mam-on Island",
    "FolderPath": "Tourist Spots Siargao.kmz/Temporary Places",
    "SymbolID": 0,
    "AltMode": -1,
    "Base": 0.0,
    "Snippet": null,
    "PopupInfo": null,
    "HasLabel": -1,
    "LabelID": 0
   },
   "geometry": {
    "type": "Point",
    "coordinates": [126.17603611100003, 9.61465277800005, 0.0]
   }
  },
  {
   "type": "Feature",
   "properties": {
    "OID_": 0,
    "Name": "Tuason Point (Surfing Site)",
    "FolderPath": "Tourist Spots Siargao.kmz/Temporary Places",
    "SymbolID": 0,
    "AltMode": -1,
    "Base": 0.0,
    "Snippet": null,
    "PopupInfo": null,
    "HasLabel": -1,
    "LabelID": 0
   },
   "geometry": {
    "type": "Point",
    "coordinates": [126.167941667000036, 9.808497222000028, 0.0]
   }
  },
  {
   "type": "Feature",
   "properties": {
    "OID_": 0,
    "Name": "Jacking Horse (Surfing Site)",
    "FolderPath": "Tourist Spots Siargao.kmz/Temporary Places",
    "SymbolID": 0,
    "AltMode": -1,
    "Base": 0.0,
    "Snippet": null,
    "PopupInfo": null,
    "HasLabel": -1,
    "LabelID": 0
   },
   "geometry": {
    "type": "Point",
    "coordinates": [126.163786111000036, 9.851224333000062, 0.0]
   }
  },
  {
   "type": "Feature",
   "properties": {
    "OID_": 0,
    "Name": "Mangrove Forest",
    "FolderPath": "Tourist Spots Siargao.kmz/Temporary Places",
    "SymbolID": 0,
    "AltMode": -1,
    "Base": 0.0,
    "Snippet": null,
    "PopupInfo": null,
    "HasLabel": -1,
    "LabelID": 0
   },
   "geometry": {
    "type": "Point",
    "coordinates": [125.971119755994536, 9.859454957028566, 0.0]
   }
  },
  {
   "type": "Feature",
   "properties": {
    "OID_": 0,
    "Name": "Alegria White Sand Beach",
    "FolderPath": "Tourist Spots Siargao.kmz/Temporary Places",
    "SymbolID": 0,
    "AltMode": -1,
    "Base": 0.0,
    "Snippet": null,
    "PopupInfo": null,
    "HasLabel": -1,
    "LabelID": 0
   },
   "geometry": {
    "type": "Point",
    "coordinates": [126.070607700000082, 10.054842200000053, 0.0]
   }
  },
  {
   "type": "Feature",
   "properties": {
    "OID_": 0,
    "Name": "Hagukan Dive",
    "FolderPath": "Tourist Spots Siargao.kmz/Temporary Places",
    "SymbolID": 0,
    "AltMode": -1,
    "Base": 0.0,
    "Snippet": null,
    "PopupInfo": null,
    "HasLabel": -1,
    "LabelID": 0
   },
   "geometry": {
    "type": "Point",
    "coordinates": [126.051277778000099, 10.055308333000028, 0.0]
   }
  },
  {
   "type": "Feature",
   "properties": {
    "OID_": 0,
    "Name": "Tangbo Surfing",
    "FolderPath": "Tourist Spots Siargao.kmz/Temporary Places",
    "SymbolID": 0,
    "AltMode": -1,
    "Base": 0.0,
    "Snippet": null,
    "PopupInfo": null,
    "HasLabel": -1,
    "LabelID": 0
   },
   "geometry": {
    "type": "Point",
    "coordinates": [126.053779500000019, 10.055520200000045, 0.0]
   }
  },
  {
   "type": "Feature",
   "properties": {
    "OID_": 0,
    "Name": "Zipline, San Benito, Siargao Aerial Surfing Site",
    "FolderPath": "Tourist Spots Siargao.kmz/Temporary Places",
    "SymbolID": 0,
    "AltMode": -1,
    "Base": 0.0,
    "Snippet": null,
    "PopupInfo": null,
    "HasLabel": -1,
    "LabelID": 0
   },
   "geometry": {
    "type": "Point",
    "coordinates": [125.999830556, 9.851225, 0.0]
   }
  },
  {
   "type": "Feature",
   "properties": {
    "OID_": 0,
    "Name": "Litik Maasin River",
    "FolderPath": "Tourist Spots Siargao.kmz/Temporary Places",
    "SymbolID": 0,
    "AltMode": -1,
    "Base": 0.0,
    "Snippet": null,
    "PopupInfo": null,
    "HasLabel": -1,
    "LabelID": 0
   },
   "geometry": {
    "type": "Point",
    "coordinates": [126.056470300000129, 9.822156900000039, 0.0]
   }
  },
  {
   "type": "Feature",
   "properties": {
    "OID_": 0,
    "Name": "Secret Lagoon",
    "FolderPath": "Tourist Spots Siargao.kmz/Temporary Places",
    "SymbolID": 0,
    "AltMode": -1,
    "Base": 0.0,
    "Snippet": null,
    "PopupInfo": null,
    "HasLabel": -1,
    "LabelID": 0
   },
   "geometry": {
    "type": "Point",
    "coordinates": [126.108715800000027, 9.772219200000052, 0.0]
   }
  },
  {
   "type": "Feature",
   "properties": {
    "OID_": 0,
    "Name": "Pilar's Mangrove (Bon's Mangrove Inn)",
    "FolderPath": "Tourist Spots Siargao.kmz/Temporary Places",
    "SymbolID": 0,
    "AltMode": -1,
    "Base": 0.0,
    "Snippet": null,
    "PopupInfo": null,
    "HasLabel": -1,
    "LabelID": 0
   },
   "geometry": {
    "type": "Point",
    "coordinates": [126.098335300000045, 9.864135200000023, 0.0]
   }
  },
  {
   "type": "Feature",
   "properties": {
    "OID_": 0,
    "Name": "Mountain View",
    "FolderPath": "Tourist Spots Siargao.kmz/Temporary Places",
    "SymbolID": 0,
    "AltMode": -1,
    "Base": 0.0,
    "Snippet": null,
    "PopupInfo": null,
    "HasLabel": -1,
    "LabelID": 0
   },
   "geometry": {
    "type": "Point",
    "coordinates": [126.059525, 9.812272222000047, 0.0]
   }
  },
  {
   "type": "Feature",
   "properties": {
    "OID_": 0,
    "Name": "Secret Island",
    "FolderPath": "Tourist Spots Siargao.kmz/Temporary Places",
    "SymbolID": 0,
    "AltMode": -1,
    "Base": 0.0,
    "Snippet": null,
    "PopupInfo": null,
    "HasLabel": -1,
    "LabelID": 0
   },
   "geometry": {
    "type": "Point",
    "coordinates": [126.164133333000109, 9.765477778000047, 0.0]
   }
  },
  {
   "type": "Feature",
   "properties": {
    "OID_": 0,
    "Name": "Taktak Falls",
    "FolderPath": "Tourist Spots Siargao.kmz/Temporary Places",
    "SymbolID": 0,
    "AltMode": -1,
    "Base": 0.0,
    "Snippet": null,
    "PopupInfo": null,
    "HasLabel": -1,
    "LabelID": 0
   },
   "geometry": {
    "type": "Point",
    "coordinates": [126.043269900000055, 10.034371700000065, 0.0]
   }
  },
  {
   "type": "Feature",
   "properties": {
    "OID_": 0,
    "Name": "Kangkangon Island",
    "FolderPath": "Tourist Spots Siargao.kmz/Temporary Places",
    "SymbolID": 0,
    "AltMode": -1,
    "Base": 0.0,
    "Snippet": null,
    "PopupInfo": null,
    "HasLabel": -1,
    "LabelID": 0
   },
   "geometry": {
    "type": "Point",
    "coordinates": [125.971157635115219, 9.96805619902335, 0.0]
   }
  },
  {
   "type": "Feature",
   "properties": {
    "OID_": 0,
    "Name": "Pagbasayan Islet",
    "FolderPath": "Tourist Spots Siargao.kmz/Temporary Places",
    "SymbolID": 0,
    "AltMode": -1,
    "Base": 0.0,
    "Snippet": null,
    "PopupInfo": null,
    "HasLabel": -1,
    "LabelID": 0
   },
   "geometry": {
    "type": "Point",
    "coordinates": [126.0075, 9.988808333000065, 0.0]
   }
  },
  {
   "type": "Feature",
   "properties": {
    "OID_": 0,
    "Name": "Poneas Hilltop Lake (Poneas Island)",
    "FolderPath": "Tourist Spots Siargao.kmz/Temporary Places",
    "SymbolID": 0,
    "AltMode": -1,
    "Base": 0.0,
    "Snippet": null,
    "PopupInfo": null,
    "HasLabel": -1,
    "LabelID": 0
   },
   "geometry": {
    "type": "Point",
    "coordinates": [125.942113889000098, 9.902827778000074, 0.0]
   }
  },
  {
   "type": "Feature",
   "properties": {
    "OID_": 0,
    "Name": "San Isidro River",
    "FolderPath": "Tourist Spots Siargao.kmz/Temporary Places",
    "SymbolID": 0,
    "AltMode": -1,
    "Base": 0.0,
    "Snippet": null,
    "PopupInfo": null,
    "HasLabel": -1,
    "LabelID": 0
   },
   "geometry": {
    "type": "Point",
    "coordinates": [126.079836400857317, 9.947016535620923, 0.0]
   }
  },
  {
   "type": "Feature",
   "properties": {
    "OID_": 0,
    "Name": "Tayangban Cave Pool",
    "FolderPath": "Tourist Spots Siargao.kmz/Temporary Places",
    "SymbolID": 0,
    "AltMode": -1,
    "Base": 0.0,
    "Snippet": null,
    "PopupInfo": null,
    "HasLabel": -1,
    "LabelID": 0
   },
   "geometry": {
    "type": "Point",
    "coordinates": [126.062729300000115, 9.862307300000051, 0.0]
   }
  },
  {
   "type": "Feature",
   "properties": {
    "OID_": 0,
    "Name": "Maasin River (Maasin Bridge River Swing)",
    "FolderPath": "Tourist Spots Siargao.kmz/Temporary Places",
    "SymbolID": 0,
    "AltMode": -1,
    "Base": 0.0,
    "Snippet": null,
    "PopupInfo": null,
    "HasLabel": -1,
    "LabelID": 0
   },
   "geometry": {
    "type": "Point",
    "coordinates": [126.056235700000101, 9.821554300000063, 0.0]
   }
  },
  {
   "type": "Feature",
   "properties": {
    "OID_": 0,
    "Name": "Magpupungko Rock Formation and Tidal Pools",
    "FolderPath": "Tourist Spots Siargao.kmz/Temporary Places",
    "SymbolID": 0,
    "AltMode": -1,
    "Base": 0.0,
    "Snippet": null,
    "PopupInfo": null,
    "HasLabel": -1,
    "LabelID": 0
   },
   "geometry": {
    "type": "Point",
    "coordinates": [126.120755556000063, 9.876597222000044, 0.0]
   }
  },
  {
   "type": "Feature",
   "properties": {
    "OID_": 0,
    "Name": "Pamomoan Beach",
    "FolderPath": "Tourist Spots Siargao.kmz/Temporary Places",
    "SymbolID": 0,
    "AltMode": -1,
    "Base": 0.0,
    "Snippet": null,
    "PopupInfo": null,
    "HasLabel": -1,
    "LabelID": 0
   },
   "geometry": {
    "type": "Point",
    "coordinates": [125.897461111000098, 9.91759722200004, 0.0]
   }
  },
  {
   "type": "Feature",
   "properties": {
    "OID_": 0,
    "Name": "Sugba Lagoon",
    "FolderPath": "Tourist Spots Siargao.kmz/Temporary Places",
    "SymbolID": 0,
    "AltMode": -1,
    "Base": 0.0,
    "Snippet": null,
    "PopupInfo": null,
    "HasLabel": -1,
    "LabelID": 0
   },
   "geometry": {
    "type": "Point",
    "coordinates": [125.900342200000082, 9.906315500000066, 0.0]
   }
  },
  {
   "type": "Feature",
   "properties": {
    "OID_": 0,
    "Name": "Pansukian Reef - Surfing Site (Pansukian Tropical Resort)",
    "FolderPath": "Tourist Spots Siargao.kmz/Temporary Places",
    "SymbolID": 0,
    "AltMode": -1,
    "Base": 0.0,
    "Snippet": null,
    "PopupInfo": null,
    "HasLabel": -1,
    "LabelID": 0
   },
   "geometry": {
    "type": "Point",
    "coordinates": [126.122944444000041, 9.757941667000068, 0.0]
   }
  },
  {
   "type": "Feature",
   "properties": {
    "OID_": 0,
    "Name": "Rock Island (Surfing Site)",
    "FolderPath": "Tourist Spots Siargao.kmz/Temporary Places",
    "SymbolID": 0,
    "AltMode": -1,
    "Base": 0.0,
    "Snippet": null,
    "PopupInfo": null,
    "HasLabel": -1,
    "LabelID": 0
   },
   "geometry": {
    "type": "Point",
    "coordinates": [126.166355556000099, 9.833158333000029, 0.0]
   }
  },
  {
   "type": "Feature",
   "properties": {
    "OID_": 0,
    "Name": "Pacifico Sunrise Beach",
    "FolderPath": "Tourist Spots Siargao.kmz/Temporary Places",
    "SymbolID": 0,
    "AltMode": -1,
    "Base": 0.0,
    "Snippet": null,
    "PopupInfo": null,
    "HasLabel": -1,
    "LabelID": 0
   },
   "geometry": {
    "type": "Point",
    "coordinates": [126.102532700000083, 9.945446900000036, 0.0]
   }
  },
  {
   "type": "Feature",
   "properties": {
    "OID_": 0,
    "Name": "Somyot Cave",
    "FolderPath": "Tourist Spots Siargao.kmz/Temporary Places",
    "SymbolID": 0,
    "AltMode": -1,
    "Base": 0.0,
    "Snippet": null,
    "PopupInfo": null,
    "HasLabel": -1,
    "LabelID": 0
   },
   "geometry": {
    "type": "Point",
    "coordinates": [126.06623611100008, 10.01830833300005, 0.0]
   }
  },
  {
   "type": "Feature",
   "properties": {
    "OID_": 0,
    "Name": "Union Beach",
    "FolderPath": "Tourist Spots Siargao.kmz/Temporary Places",
    "SymbolID": 0,
    "AltMode": -1,
    "Base": 0.0,
    "Snippet": null,
    "PopupInfo": null,
    "HasLabel": -1,
    "LabelID": 0
   },
   "geometry": {
    "type": "Point",
    "coordinates": [126.113755556000115, 9.75202777800007, 0.0]
   }
  },
  {
   "type": "Feature",
   "properties": {
    "OID_": 0,
    "Name": "Daku Island",
    "FolderPath": "Tourist Spots Siargao.kmz/Temporary Places",
    "SymbolID": 0,
    "AltMode": -1,
    "Base": 0.0,
    "Snippet": null,
    "PopupInfo": null,
    "HasLabel": -1,
    "LabelID": 0
   },
   "geometry": {
    "type": "Point",
    "coordinates": [126.157903979000011, 9.740182120000041, 0.0]
   }
  },
  {
   "type": "Feature",
   "properties": {
    "OID_": 0,
    "Name": "Guyam Islet",
    "FolderPath": "Tourist Spots Siargao.kmz/Temporary Places",
    "SymbolID": 0,
    "AltMode": -1,
    "Base": 0.0,
    "Snippet": null,
    "PopupInfo": null,
    "HasLabel": -1,
    "LabelID": 0
   },
   "geometry": {
    "type": "Point",
    "coordinates": [126.16773888900002, 9.765386111000055, 0.0]
   }
  },
  {
   "type": "Feature",
   "properties": {
    "OID_": 0,
    "Name": "Naked Island",
    "FolderPath": "Tourist Spots Siargao.kmz/Temporary Places",
    "SymbolID": 0,
    "AltMode": -1,
    "Base": 0.0,
    "Snippet": null,
    "PopupInfo": null,
    "HasLabel": -1,
    "LabelID": 0
   },
   "geometry": {
    "type": "Point",
    "coordinates": [126.126016667000044, 9.734858333000034, 0.0]
   }
  },
  {
   "type": "Feature",
   "properties": {
    "OID_": 0,
    "Name": "General Luna White Beach",
    "FolderPath": "Tourist Spots Siargao.kmz/Temporary Places",
    "SymbolID": 0,
    "AltMode": -1,
    "Base": 0.0,
    "Snippet": null,
    "PopupInfo": null,
    "HasLabel": -1,
    "LabelID": 0
   },
   "geometry": {
    "type": "Point",
    "coordinates": [126.156742, 9.781112800000075, 0.0]
   }
  }
 ]
}
